bezeichnung,latitude,longitude,anzeigename,beschreibung,anzahl,zeitliche_einschraenkung
"Behindertenparkplatz ""Ainmillerstraße 43""",48.159130414668205,11.575583330350195,Behindertenparkplatz,allgemeiner Bedarf,1,werktags 9.00-20.00 Uhr
"Behindertenparkplatz ""Albert-Roßhaupter-Straße 2""",48.11698079072741,11.538800949876924,Behindertenparkplatz,Orthopädische Praxis,1,Mo-Fr werktags 7.30-17.00 Uhr
"Behindertenparkplatz ""Albert-Roßhaupter-Straße 73""",48.11637841879779,11.526665130325892,Behindertenparkplatz,Ärztehaus,2,Mo-Fr werktags 8.00-18.00 Uhr
"Behindertenparkplatz ""Alexandrastraße 3""",48.14165482706939,11.590064598315113,Behindertenparkplatz,Staatsbehörden,3,Mo-Fr werktags 8.00-17.00 Uhr
"Behindertenparkplatz ""Alfred-Neumann-Anger 8""",48.09541633992585,11.651864789275757,Behindertenparkplatz,Allgemeiner Bedarf,1,keine
"Behindertenparkplatz ""Altheimer Eck 2""",48.137412670423785,11.571066209663966,Behindertenparkplatz,"Fußgängerzone, Sanitätshaus",1,keine
"Behindertenparkplatz ""Am Aubinger Wasserturm 28""",48.15268862453485,11.416815705322323,Behindertenparkplatz,Alten- und Service-Zentrum&nbsp;,1,Mo-Fr werktags 8.00-17.00 Uhr
"Behindertenparkplatz ""Am Harras 2""",48.11645636203678,11.539221984216274,Behindertenparkplatz,Postamt,1,keine
"Behindertenparkplatz ""Am Isarkanal 30""",48.10275391359027,11.54919969926279,Behindertenparkplatz,Klinik Dr. Rinecker,1,bis 3 Stunden
"Behindertenparkplatz ""Am Isarkanal 36""",48.10228860934149,11.54865326079096,Behindertenparkplatz,Klinik Dr. Müller,1,bis 3 Stunden
"Behindertenparkplatz ""Am Mitterfeld 68""",48.13183842811386,11.679307706492326,Behindertenparkplatz,Friedhof Riem,2,keine
"Behindertenparkplatz ""Am Schützeneck 8""",48.147898767255775,11.460895355286851,Behindertenparkplatz,Orthopädiefachgeschäft,1,Mo-Fr werktags 9.00-18.00 Uhr Sa werktags 9.00-14.00 Uhr bis 1 Stunde
"Behindertenparkplatz ""Amalienstraße 17""",48.146919656576834,11.576187810520613,Behindertenparkplatz,"Ludwig-Maximilians-Universität (Universitätsgebäude für Mathematik, Informatik und Statistik)",1,werktags 7.00-20.00 Uhr
"Behindertenparkplatz ""Amalienstraße 87""",48.15145911826941,11.579268492642608,Behindertenparkplatz,Ludwig-Maximilians-Universität,1,keine
"Behindertenparkplatz ""Anzinger Straße 1""",48.12096461489869,11.606555242288898,Behindertenparkplatz,"Arztpraxen, Apotheken",2,Mo-Fr werktags 8.00-18.00 Uhr
"Behindertenparkplatz ""Anzinger Straße 40""",48.12080667021785,11.611687346143519,Behindertenparkplatz,"Gaststätte ""Wilder Mann""",2,keine
"Behindertenparkplatz ""Arcisstraße 21""",48.14877598193714,11.568707196612081,Behindertenparkplatz,Technische Universität,2,täglich 9.00-24.00 Uhr bis 2 Stunden
"Behindertenparkplatz ""Arnulfstraße 15""",48.14251124266029,11.553158845749508,Behindertenparkplatz,Spardabank,1,Mo-Fr werktags 9.00-18.00 Uhr
"Behindertenparkplatz ""Arnulfstraße 1a""",48.141099131346145,11.558948984296945,Behindertenparkplatz,Hauptbahnhof (Vorplatz Nord),2,bis 1 Stunde
"Behindertenparkplatz ""Arnulfstraße 22""",48.14198793435285,11.557375946384392,Behindertenparkplatz,Bayerischer Blindenbund,1,Mo-Fr werktags 9.00-18.00 Uhr Sa 9.00-14.00 Uhr
"Behindertenparkplatz ""August-Exter-Straße 3""",48.15064743229618,11.462109751919463,Behindertenparkplatz,Bahnhof Pasing,2,keine
"Behindertenparkplatz ""Augustenstraße 115""",48.1542524186278,11.56617489383839,Behindertenparkplatz,Diagnoseklinik München,1,7.00-20.00 Uhr bis 2 Stunden
"Behindertenparkplatz ""Augustenstraße 4""",48.14440871818558,11.560130076984356,Behindertenparkplatz,Ärztehaus (südlich Karlstraße),2,keine
"Behindertenparkplatz ""Bad-Schachener-Straße 2b""",48.120630237378855,11.614045924382344,Behindertenparkplatz,"Arztpraxis, Stadtsparkasse",1,Mo-Fr werktags 8.00-18.00 Uhr
"Behindertenparkplatz ""Bad-Schachener-Straße 35""",48.12057509071571,11.617733314582042,Behindertenparkplatz,U-Bahnhof Innsbrucker Ring (Nordseite),2,keine
"Behindertenparkplatz ""Bahnhofplatz 1""",48.1396284467477,11.56123234831227,Behindertenparkplatz,"Hauptbahnhof, Post, Geschäfte",3,keine
"Behindertenparkplatz ""Balanstraße 28""",48.12547323915461,11.59572081863373,Behindertenparkplatz,Alten- und Service-Zentrum,2,Mo-Fr werktags 8.00-18.00 Uhr
"Behindertenparkplatz ""Baldestraße 21""",48.12396588380327,11.567020653469964,Behindertenparkplatz,Arztpraxen und Apotheke,1,Mo-Fr 8.00-19.00 Uhr Sa 8.00-13.00 Uhr
"Behindertenparkplatz ""Baldurstraße 49a""",48.16862740444851,11.523859316642957,Behindertenparkplatz,Kleingartenanlage,4,keine
"Behindertenparkplatz ""Barlachstraße 24""",48.17754833493612,11.57546517651901,Behindertenparkplatz,Stiftung Pfennigparade,2,Mo-Sa werktags 6.00-23.00 Uhr bis 3 Stunden
"Behindertenparkplatz ""Barthstraße 20""",48.138031523707646,11.52811903652757,Behindertenparkplatz,Verwaltungs-Berufsgenossenschaft Beratungsstelle für Behinderte,2,werktags 8.00-17.00 Uhr
"Behindertenparkplatz ""Baubergerstraße 16""",48.179556783442244,11.509457329063707,Behindertenparkplatz,"Ärztehaus, Geschäfte",1,Mo-Fr werktags 8.00-19.00 Uhr Sa 8.00-14.00 Uhr
"Behindertenparkplatz ""Baumkirchner Straße 22""",48.12904983226355,11.631043897491683,Behindertenparkplatz,Geschäfte (nördlich Kreillerstraße),1,Mo-Fr werktags 9.00-18.00 Uhr Sa werktags 9.00-14.00 Uhr
"Behindertenparkplatz ""Bayerstraße 10""",48.1394690122762,11.558344846443548,Behindertenparkplatz,Hauptbahnhof (südlicher Parkplatz),3,bis 1 Stunde
"Behindertenparkplatz ""Bayerstraße 77a""",48.13903991330907,11.553188928754407,Behindertenparkplatz,Selbsthilfezentrum,1,Mo-Fr werktags 10.00-22.00 Uhr
"Behindertenparkplatz ""Bayerwaldstraße 51""",48.08772520592203,11.628298743125212,Behindertenparkplatz,Praxis für Physiotherapie,1,Mo-Do werktags 8.00-20.00 Uhr Fr werktags 8.00-18.00 Uhrbis 2 Stunden
"Behindertenparkplatz ""Belgradstraße 115""",48.171496551718505,11.573229422863188,Behindertenparkplatz,U-Bahnhof Scheidplatz (Westseite),2,keine
"Behindertenparkplatz ""Belgradstraße 59""",48.16613028331635,11.57397294146259,Behindertenparkplatz,Supermarkt,1,werktags 7.00-20.00 Uhr bis 1 Stunde
"Behindertenparkplatz ""Belgradstraße 68""",48.16827977500729,11.57399549733471,Behindertenparkplatz,Supermarkt,1,werktags 7.00-20.00 Uhr bis 1 Stunde
"Behindertenparkplatz ""Belgradstraße 7""",48.16112859658704,11.574814108596911,Behindertenparkplatz,Krankengymnastik,2,9.00-23.00 Uhr
"Behindertenparkplatz ""Biedersteiner Straße 29""",48.164025769500924,11.593859037919765,Behindertenparkplatz,Poliklinik,3,keine
"Behindertenparkplatz ""Birnauer Straße 4""",48.17542975412019,11.565646933494504,Behindertenparkplatz,U-Bahnhof Petuelring,3,keine
"Behindertenparkplatz ""Blumenstraße 28a""",48.13245069876004,11.571705320837937,Behindertenparkplatz,"Behörden, Stadtwerke",2,Mo-Fr 7.00-18.00 Uhr
"Behindertenparkplatz ""Blutenburgstraße 71""",48.15039955944033,11.537507470269729,Behindertenparkplatz,Wohnheim für Behinderte,2,keine
"Behindertenparkplatz ""Bodenehrstraße 18""",48.117534880837134,11.535693474526164,Behindertenparkplatz,Sozialverband Deutschland,1,Mo-Fr 7.00-16.00 Uhr
"Behindertenparkplatz ""Bodenseestraße 1""",48.14680093872642,11.458844031731012,Behindertenparkplatz,Allgemeiner Bedarf,1,keine
"Behindertenparkplatz ""Bonner Platz 1""",48.16714887496208,11.578273248509651,Behindertenparkplatz,Arbeitsgemeinschaft Behinderte in den Medien,1,Mo-Fr werktags 9.00-17.00 Uhr
"Behindertenparkplatz ""Breslauer Straße 2""",48.181279789901595,11.508586995706164,Behindertenparkplatz,"Postamt, Ärztehaus und Apotheke",1,"Mo-Fr werktags 8.00-19.00, Sa werktags 9.00-13.00, bis 2 Stunden"
"Behindertenparkplatz ""Brienner Straße 20""",48.14375013736521,11.572713352650885,Behindertenparkplatz,BayernLB,1,Mo-Fr werktags 8.00-18.00 Uhr bis 1 Stunde
"Behindertenparkplatz ""Brienner Straße 50""",48.147366979760065,11.55998388719881,Behindertenparkplatz,Volkstheater,3,18.00-23.00 Uhr
"Behindertenparkplatz ""Bunzlauer Straße 7""",48.18045112763521,11.507236731570694,Behindertenparkplatz,Bahnhof Moosach,1,keine
"Behindertenparkplatz ""Burgstraße 1""",48.13712013497644,11.577074506081969,Behindertenparkplatz,Städtischer Behindertenbeirat Geschäftsstelle,3,keine
"Behindertenparkplatz ""Buschingstraße 13""",48.14349729182833,11.617146859717282,Behindertenparkplatz,U-Bahnhof Böhmerwaldplatz,1,keine
"Behindertenparkplatz ""Carl-Wery-Straße 34""",48.0888302494955,11.64502970023863,Behindertenparkplatz,S-/U-Bahnhof Neuperlach Süd,2,keine
"Behindertenparkplatz ""Charles-de-Gaulle-Straße 4""",48.102276175394174,11.643809445574655,Behindertenparkplatz,Vertrauensärztliche Dienststelle,1,Mo-Fr werktags 7.00-19.00 Sa 8.00-13.00 bis 3 Stunden
"Behindertenparkplatz ""Christophstraße 12""",48.141386925890856,11.585572035996794,Behindertenparkplatz,Bayerisches Rotes Kreuz,2,keine
"Behindertenparkplatz ""Claude-Lorrain-Straße 24""",48.11984801110784,11.56971463120293,Behindertenparkplatz,Schyrenbad,2,keine
"Behindertenparkplatz ""Claudius-Keller-Straße ggü. 64""",48.11821169616078,11.608919938148162,Behindertenparkplatz,U-Bahnhof Karl-Preis-Platz (Nordseite),1,keine
"Behindertenparkplatz ""Corneliusstraße 2""",48.13267699683494,11.57452474479207,Behindertenparkplatz,Aids-Hilfe (Beratungsstelle),1,keine
"Behindertenparkplatz ""Corneliusstraße 24""",48.13082512342851,11.577173141711054,Behindertenparkplatz,amubante Behinderteneinrichtung,1,Mo-Fr werktags 8.00-18.00 Uhr
"Behindertenparkplatz ""Corneliusstraße 42""",48.12988557532185,11.578470511674508,Behindertenparkplatz,allgemeiner Bedarf,1,Mo-Fr werktags 9.00-18.00 Uhr
"Behindertenparkplatz ""Cosimastraße 5""",48.154251327532904,11.628887825991288,Behindertenparkplatz,Cosimabad (Zufahrtsstraße),3,8.00-18.00 Uhr
"Behindertenparkplatz ""Cuvilliesstraße 14a""",48.143383201978715,11.604677647810583,Behindertenparkplatz,Internistische Praxis,1,Mo-Fr werktags 9.00-18.00 Uhr bis 2 Stunden
"Behindertenparkplatz ""Dachauer Straße 270""",48.18048800234029,11.512729591771139,Behindertenparkplatz,"Apotheke, Banken, Geschäfte",1,Mo-Fr werktags 8.00-19.00 Uhr Sa werktags 8.00-14.00 Uhr
"Behindertenparkplatz ""Dachauer Straße 34""",48.145440687361756,11.559536714072358,Behindertenparkplatz,Begegnungsstätte für Behinderte,1,Mo-Fr werktags 9.00-17.00 Uhr
"Behindertenparkplatz ""Dachauer Straße 419""",48.180293970329956,11.51257006153705,Behindertenparkplatz,"Apotheke, Banken, Geschäfte",1,Mo-Fr werktags 8.00-19.00 Uhr Sa werktags 8.00-14.00 Uhr
"Behindertenparkplatz ""Dachauer Straße 90""",48.150773108309224,11.558194235500016,Behindertenparkplatz,Städtisches Gesundheitsamt,2,bis 2 Stunden
"Behindertenparkplatz ""Daiserstraße 37""",48.118479963666566,11.54375704987509,Behindertenparkplatz,Alten-und Service-Zentrum,1,Mo-Fr werktags 9.00-17.00 Uhr
"Behindertenparkplatz ""Damenstiftstraße 12""",48.13671540835229,11.568586380410903,Behindertenparkplatz,Städtischer Bestattungsdienst,2,keine
"Behindertenparkplatz ""Dantestraße 8""",48.166736121241634,11.527573811678261,Behindertenparkplatz,"Dantebad, Seniorenheim",1,keine
"Behindertenparkplatz ""Denninger Straße 44""",48.14894761077843,11.614552975951911,Behindertenparkplatz,Chirurgische Privatklinik Bogenhausen,2,Mo-Fr 9.00-20.00 Uhr Sa 9.00-12.00 Uhr
"Behindertenparkplatz ""Deroystraße 12""",48.14501819987678,11.545705901617193,Behindertenparkplatz,Finanzämter,1,keine
"Behindertenparkplatz ""Deroystraße 4""",48.14571193837981,11.546022304334107,Behindertenparkplatz,Finanzämter,1,keine
"Behindertenparkplatz ""Dillwächterstraße 7""",48.132588835527876,11.52552219174487,Behindertenparkplatz,Sozialbürgerhaus,1,keine
"Behindertenparkplatz ""Dollmannstraße ggü. 19""",48.11935418306208,11.577213415743381,Behindertenparkplatz,Alten-und Service-Zentrum (Kolumbusstraße 33),2,davon 1 nur Mo-Fr werktags 9.00-17.00 Uhr
"Behindertenparkplatz ""Donnersbergerstraße 5""",48.15209886030498,11.532942830586492,Behindertenparkplatz,"Arztpraxen, Apotheke, Geschäfte",2,werktags 8.00-20.00 Uhr
"Behindertenparkplatz ""Ebenböckstraße 15""",48.14580460639728,11.461172587591273,Behindertenparkplatz,Alten-und Service-Zentrum,2,keine
"Behindertenparkplatz ""Edmund-Rumpler-Straße 13""",48.194141752166914,11.612667835608583,Behindertenparkplatz,"Besucherparkplätze (Nordseite, östlich)",2,keine
"Behindertenparkplatz ""Ehrenbreitsteiner Straße ggü. 5""",48.182655152812714,11.528873385617565,Behindertenparkplatz,Ärztehaus und Apotheke,1,werktags 7.00-22.00 Uhr bis 3 Stunden
"Behindertenparkplatz ""Ehrwalder Straße 87a""",48.11632953126928,11.503330040470868,Behindertenparkplatz,U-Bahnhof Holzapfelkreuth (östlich Fürstenrieder Straße),2,keine
"Behindertenparkplatz ""Eichstätter Straße 2""",48.131844965190226,11.52071945973605,Behindertenparkplatz,"Kraftfahrzeugzulassung, Fahrerlaubnisbehörde (Privatgrund)",2,Mo-Fr werktags 9.00-14.00 Uhr
"Behindertenparkplatz ""Einsteinstraße 127""",48.136274105476495,11.608675519592202,Behindertenparkplatz,Arztpraxen,2,Mo-Fr werktags 9.00-18.00 Uhr
"Behindertenparkplatz ""Einsteinstraße 46""",48.13556475794439,11.601143572158557,Behindertenparkplatz,Orthopädiefachgeschäft,1,"Mo-Fr werktags 8.00-18.00 Uhr, Sa werktags 9.00-14.00"
"Behindertenparkplatz ""Einsteinstraße 5""",48.1358032159276,11.601182034911835,Behindertenparkplatz,"U-Bahnhof Max-Weber-Platz, Klinikum rechts der Isar (Nordseite, vor dem Max-Weber-Platz)",1,8.00-19.00 Uhr
"Behindertenparkplatz ""Einsteinstraße 74""",48.135538387747154,11.603924928258051,Behindertenparkplatz,Friedhof,1,keine
"Behindertenparkplatz ""Elisenstraße Nähe Nr. 3""",48.1412966884266,11.563589787551834,Behindertenparkplatz,Oberlandesgericht,1,Mo-Fr werktags 7.00-20.00 Uhr
"Behindertenparkplatz ""Elritzenstraße 27""",48.1248391708032,11.662728207484832,Behindertenparkplatz,AOK Bayern,1,Mo-Fr werktags 8.00-17.00 Uhr bis 1 Stunde
"Behindertenparkplatz ""Elsenheimerstraße 39""",48.13791921476804,11.521610247771436,Behindertenparkplatz,Regierung von Oberbayern,2,Mo-Fr werktags 8.00-17.00 Uhr
"Behindertenparkplatz ""Emil-Riedel-Straße 3""",48.145895524497185,11.593961561613403,Behindertenparkplatz,allgemeiner Bedarf,1,keine
"Behindertenparkplatz ""Emmy-Noether-Straße 2""",48.171126471565145,11.531264478890705,Behindertenparkplatz,Stadtwerke München,1,Mo-Fr werktags 7.00-18.00 Uhr bis 2 Stunden
"Behindertenparkplatz ""Englschalkinger Straße 77""",48.15390803888271,11.62425339075045,Behindertenparkplatz,Klinikum Bogenhausen,2,keine
"Behindertenparkplatz ""Entenbachstraße 25""",48.1231533537499,11.57829044988783,Behindertenparkplatz,Altenheim,2,keine
"Behindertenparkplatz ""Erhardtstraße 38""",48.13221008807654,11.584577717221908,Behindertenparkplatz,Deutsches Patent- und Markenamt,2,Mo-Fr werktags 9.00-18.00 Uhr
"Behindertenparkplatz ""Erika-Cremer-Straße 5""",48.131421397803315,11.692932810692687,Behindertenparkplatz,Wohngebiet,1,keine
"Behindertenparkplatz ""Ettstraße ggü. 2""",48.139007869973526,11.570764057592948,Behindertenparkplatz,"Fußgängerzone, Polizeipräsidium",3,keine
"Behindertenparkplatz ""Falkenstraße 20""",48.12250071286696,11.579350205518546,Behindertenparkplatz,Altenheim,1,7.00-20.00 Uhr
"Behindertenparkplatz ""Fallmerayerstraße 2""",48.16074946475959,11.573217626532747,Behindertenparkplatz,Jugendcafe für behinderte Jugendliche,2,keine
"Behindertenparkplatz ""Fellererplatz 2""",48.076842660685436,11.51787479962685,Behindertenparkplatz,allgemeiner Bedarf (Südseite),2,7.00-18.00 Uhr
"Behindertenparkplatz ""Floriansmühlstraße 5""",48.1920363818967,11.61912636060894,Behindertenparkplatz,Theater,1,"Mo-Fr 17.00-22.00 Uhr, Sa+So 10.00-22.00 Uhr"
"Behindertenparkplatz ""Forstenrieder Allee 55""",48.09529850789548,11.498182485603294,Behindertenparkplatz,"U-Bahnhof Forstenrieder Allee, Arztpraxen",4,keine
"Behindertenparkplatz ""Frankenthaler Straße 9""",48.110200669185744,11.597787629596288,Behindertenparkplatz,Behörden,1,Mo-Fr werktags 8.00-18.00 Uhr
"Behindertenparkplatz ""Franziskanerstraße 6""",48.12782585084795,11.593405253750593,Behindertenparkplatz,Flüchtlingsamt,1,Mo-Fr werktags 8.00-18.00 Uhr
"Behindertenparkplatz ""Frauenlobstraße 5""",48.13045873512116,11.56453456430077,Behindertenparkplatz,Kirche,1,keine
"Behindertenparkplatz ""Fraunbergplatz 1""",48.100095977676744,11.544537130491742,Behindertenparkplatz,Kirche Maria Thalheim,1,keine
"Behindertenparkplatz ""Fraunbergplatz 5""",48.099997106334996,11.544551428921412,Behindertenparkplatz,Maria Thalkirchen Pfarramt,1,keine
"Behindertenparkplatz ""Freihamer Weg 73""",48.153445948662295,11.41012733658067,Behindertenparkplatz,Aubinger Friedhof,2,keine
"Behindertenparkplatz ""Freischützstraße 65""",48.16547913360779,11.64444156547407,Behindertenparkplatz,"Ärztehaus, Apotheke",1,keine
"Behindertenparkplatz ""Friedrichshafener Straße 11""",48.14798008367943,11.442107066881146,Behindertenparkplatz,"Ärzte, Bürgerhaus, Geschäfte",2,keine
"Behindertenparkplatz ""Friedrichshafener Straße 8""",48.14867409326329,11.440567509508151,Behindertenparkplatz,BRK Seniorenheim (Südseite),2,keine
"Behindertenparkplatz ""Friedrichstraße 19""",48.15763943359413,11.57978257235138,Behindertenparkplatz,Bundesknappschaft,2,Mo-Fr werktags 8.00-18.00 Uhr
"Behindertenparkplatz ""Fritz-Schäffer-Straße 26""",48.10351136111099,11.64773508543236,Behindertenparkplatz,Deutsche Rentenversicherung,1,Mo-Fr 8.00-18.00 Uhr
"Behindertenparkplatz ""Fritz-Schäffer-Straße bei 26""""",48.103464626903595,11.648628309618827,Behindertenparkplatz,Deutsche Rentenversicherung,2,Mo-Fr werktags 8.00-18.00 Uhr
"Behindertenparkplatz ""Führichstraße 43""",48.11770884749709,11.614484127141495,Behindertenparkplatz,Stadtbücherei,1,Mo-Fr 10.00-19.00 Uhr
"Behindertenparkplatz ""Gewürzmühlstraße 6""",48.13925999791615,11.58933791035037,Behindertenparkplatz,Bayerische Versicherungskammer,2,keine
"Behindertenparkplatz ""ggü. Baldurstraße 83""",48.168109040291654,11.518157114007735,Behindertenparkplatz,Friedhof,2,8.00-18.00 Uhr bis 4 Stunden
"Behindertenparkplatz ""Gilmstraße 52""",48.11951180345848,11.507187783277546,Behindertenparkplatz,Westpark,2,keine
"Behindertenparkplatz ""Goethestraße 69""",48.131501567399546,11.55852726819291,Behindertenparkplatz,Kinderklinik,3,Mo-Fr werktags 8.00-18.00 Uhr
"Behindertenparkplatz ""Goethestraße 74""",48.130425834933924,11.558261074560876,Behindertenparkplatz,Sozialverband VdK Bayern,1,Mo-Fr werktags 8.00-18.00 Uhr
"Behindertenparkplatz ""Gollierstraße 4""",48.13571492369508,11.546943325316958,Behindertenparkplatz,allgemeiner Bedarf,1,keine
"Behindertenparkplatz ""Gollierstraße 55""",48.13577892371934,11.538155885967585,Behindertenparkplatz,Evangelische Kirche,1,9.00-12.00 Uhr
"Behindertenparkplatz ""Gollierstraße 75""",48.13638937502896,11.53121085223395,Behindertenparkplatz,Altenheim,1,keine
"Behindertenparkplatz ""Gottfried-Keller-Straße ggü. 2""",48.15061658978877,11.466108319781076,Behindertenparkplatz,Integrative Kinderkrippe,1,Mo-Fr werktags 8.00-17.00 Uhr
"Behindertenparkplatz ""Gotthardstraße 47""",48.135272061862196,11.503886556631068,Behindertenparkplatz,Geschäfte,2,keine
"Behindertenparkplatz ""Gräfelfinger Straße 59""",48.1167620350189,11.492185159534511,Behindertenparkplatz,Arztpraxen,1,Mo-Fr werktags 8.00-18.00 Uhr
"Behindertenparkplatz ""Gravelottestraße 8""",48.12753720647928,11.600869799841872,Behindertenparkplatz,Arztpraxen,1,Mo-Fr werktags 8.00-19.00 Uhr
"Behindertenparkplatz ""Greinerberg 17""",48.105105577494754,11.543465722552876,Behindertenparkplatz,Pflegeeinrichtung,1,7.00-18.00 Uhr
"Behindertenparkplatz ""Grillparzerstraße 16""",48.1347190121411,11.610225659640053,Behindertenparkplatz,Zweigstelle des Sozialverband VdK Bayern e.V.,1,werktags Mo-Fr 7.30-18.00 Uhr bis 3 Stunden
"Behindertenparkplatz ""Grohmannstraße 3""",48.218927464961695,11.550839912115666,Behindertenparkplatz,Allgemeiner Bedarf,1,"7.00-20.00 Uhr, bis 3 Stunden"
"Behindertenparkplatz ""Guardinistraße 135""",48.118566455329535,11.486385304115073,Behindertenparkplatz,Praxis für Physiotherapie,1,Mo-Fr werktags 8.00-18.00 Uhr bis 2 Stunden
"Behindertenparkplatz ""Guardinistraße 89""",48.11841395029309,11.489502831755125,Behindertenparkplatz,"U-Bahnhof Haderner Stern, Geschäfte",2,keine
"Behindertenparkplatz ""Gulbranssonstraße ggü. 47""",48.08207840964282,11.504478150555453,Behindertenparkplatz,Einkaufszentrum,1,Mo-Fr werktags 9.00-18.00 Uhr Sa werktags 9.00-14.00 Uhr bis 2 Stunden
"Behindertenparkplatz ""Gunezrainerstraße 7""",48.16002951038058,11.59167933964068,Behindertenparkplatz,Katholische Akademie (nördlich Mandlstraße 23),2,9.00-19.00 Uhr
"Behindertenparkplatz ""Häberlstraße 17""",48.12736448121217,11.55849550802295,Behindertenparkplatz,Elternsein e.V.,2,Mo-Fr 9.00-18.00 Uhr
"Behindertenparkplatz ""Hanauer Straße ggü. 61""",48.18160989007072,11.529474644162855,Behindertenparkplatz,"U-Bahnhof Olympia-Einkaufszentrum, Ausgang Hanauer Str. Süd",3,keine
"Behindertenparkplatz ""Hanns-Schwindt-Straße 17""",48.13515695857116,11.687475961907358,Behindertenparkplatz,Arztpraxen,3,Mo-Fr werktags 8.00-19.00 Uhr
"Behindertenparkplatz ""Harlachinger Straße 51""",48.104142071953746,11.566408143420995,Behindertenparkplatz,Orthopädische Klinik,3,keine
"Behindertenparkplatz ""Harlachinger Straße ggü. 1a""",48.110655109502424,11.572900090666948,Behindertenparkplatz,Fußballstadion,1,keine
"Behindertenparkplatz ""Heckscherstraße 9""",48.17234927667618,11.585080967263368,Behindertenparkplatz,Klinik,2,Mo-Fr 7.00-16.00 Uhr
"Behindertenparkplatz ""Heimburgstraße 2c""",48.14606150641268,11.444277964291148,Behindertenparkplatz,Stiftung Pfennigparade,1,keine
"Behindertenparkplatz ""Heimeranstraße 70""",48.133624013983926,11.534561161437928,Behindertenparkplatz,Arztpraxen,1,keine
"Behindertenparkplatz ""Heinrich-Groh-Straße 10""",48.19299863746078,11.616408959302028,Behindertenparkplatz,"Kirche, Stadtsparkasse",1,"7.00-19.00 Uhr, bis 2 Stunden"
"Behindertenparkplatz ""Heinrich-Wieland-Straße 16""",48.118072065780105,11.633445928607456,Behindertenparkplatz,Michaelibad (westlich u. östlich der Rampe U-Bahnhof),2,keine
"Behindertenparkplatz ""Herkomerplatz 2""",48.1506550509328,11.608835158769573,Behindertenparkplatz,Geschäfte,1,keine
"Behindertenparkplatz ""Herzog-Wilhelm-Straße bei Sendlinger Tor""",48.13393914510478,11.568105787196775,Behindertenparkplatz,allgemeiner Bedarf,2,keine
"Behindertenparkplatz ""Herzogspitalstraße 1""",48.1375390830468,11.568794466475115,Behindertenparkplatz,"Geschäfte, Fußgängerzone",2,keine
"Behindertenparkplatz ""Herzogspitalstraße 13""",48.13789128996503,11.56678953679768,Behindertenparkplatz,allgemeiner Bedarf (Stadtsteueramt),1,keine
"Behindertenparkplatz ""Herzogspitalstraße westl. 24""",48.13793680289851,11.565741134732876,Behindertenparkplatz,"Arztpraxen, Geschäfte, Krankenkasse",3,keine
"Behindertenparkplatz ""Heßstraße 22""",48.15100878303328,11.569360492196347,Behindertenparkplatz,Diakoniewerk München,2,bis 2 Stunden
"Behindertenparkplatz ""Heßstraße 76""",48.1529923270577,11.562341637306504,Behindertenparkplatz,Orthopädiefach-geschäft,1,Mo-Do werktags 8.00-18.00 Uhr Fr werktags 8.00-14.00 Uhr
"Behindertenparkplatz ""Hiltenspergerstraße 72""",48.165166746585456,11.566412353752895,Behindertenparkplatz,Alten-und Service-Zentrum,2,Mo-Fr werktags 9.00-20.00 Uhr
"Behindertenparkplatz ""Himbselstraße 2""",48.14366024022622,11.59129835516562,Behindertenparkplatz,Nationalmuseum,1,9.00-17.00 Uhr
"Behindertenparkplatz ""Hirschgartenallee 38""",48.153826055691226,11.507175547419909,Behindertenparkplatz,Arztpraxis,1,Mo-Fr werktags 8.00-19.00 Uhr Sa werktags 8.00-14.00 Uhr
"Behindertenparkplatz ""Hirtenstraße 4""",48.14192917066662,11.559640617989256,Behindertenparkplatz,Caritas Verwaltungsgebäude,1,Mo-Fr werktags 8.00-18.00 Uhr bis 2 Stunden
"Behindertenparkplatz ""Hohenstaufenstraße 1""",48.15656914465404,11.576081579960997,Behindertenparkplatz,Zentrum Seniorenstudium,1,Mo-Fr werktags 9.00-18.00 Uhr
"Behindertenparkplatz ""Hohenzollernstraße 128""",48.161197120328914,11.56785719289508,Behindertenparkplatz,"U-Bahnhof, Geschäfte",1,keine
"Behindertenparkplatz ""Hohenzollernstraße 44""",48.15999660278717,11.580032188534451,Behindertenparkplatz,"Geschäfte (Nordseite, westlich Friedrichstraße)",1,Mo-Fr werktags 8.30-18.00 Uhr
"Behindertenparkplatz ""Holzstraße 9""",48.13034290778947,11.568404582841307,Behindertenparkplatz,Kirche,1,Mo-Sa 15.00-23.00 Uhr So 9.00-23.00 Uhr
"Behindertenparkplatz ""Homerstraße 3""",48.167388989361314,11.53218578578906,Behindertenparkplatz,Dantebad,2,keine
"Behindertenparkplatz ""Hugo-Troendle-Straße 53""",48.17845780069095,11.514335522493928,Behindertenparkplatz,Sozialzentrum Moosach,2,8.00-19.00 Uhr
"Behindertenparkplatz ""Ickstattstraße 30""",48.12773067605633,11.573322944400784,Behindertenparkplatz,Orthopädisches Schuhfachwerk,1,Mo-Fr werktags 7.30-18.00 Uhr
"Behindertenparkplatz ""Infanteriestraße 5""",48.15799896086056,11.556942722839997,Behindertenparkplatz,Amtsgericht,1,Mo-Fr werktags 7.00-18.00 Uhr
"Behindertenparkplatz ""Institutstraße 12""",48.14640509406263,11.456906341801485,Behindertenparkplatz,Arztpraxen,1,Mo-Fr werktags 8.00-18.00 Uhr
"Behindertenparkplatz ""Isartalstraße 42""",48.119807468019246,11.560178659578144,Behindertenparkplatz,Adventgemeinde,1,Sa 7.00-22.00 Uhr
"Behindertenparkplatz ""Isenschmidstraße 19""",48.09055074991047,11.55638727364861,Behindertenparkplatz,Ärztehaus,1,Mo-Fr werktags 8.00-20.00 Uhr
"Behindertenparkplatz ""Ismaninger Straße ggü. 50""",48.14056999763509,11.59996944910986,Behindertenparkplatz,Museum Villa Stuck,2,Mi-So 9.00-18.00 Uhr
"Behindertenparkplatz ""Jahnstraße 38""",48.12770617044373,11.569158768153242,Behindertenparkplatz,Münchner Mädchen e.V.,1,Mo-Fr werktags
"Behindertenparkplatz ""Josef-Retzer-Straße 47""",48.14383659690157,11.4615022293285,Behindertenparkplatz,Arztpraxis,1,Mo-Fr werktags 7.00-18.00 Uhr
"Behindertenparkplatz ""Josef-Retzer-Straße 57""",48.14476075594196,11.46008158846452,Behindertenparkplatz,Krankengymnastik,1,Mo-Fr werktags 9.00-18.00 Uhr
"Behindertenparkplatz ""Josephsburgstraße 8""",48.12834007032465,11.62707933339189,Behindertenparkplatz,"Berg-Bad, Massagepraxis",2,Mo-Fr 7.00-19.00 Uhr
"Behindertenparkplatz ""Josephsburgstraße ggü. 40""",48.12620898516089,11.632783644174989,Behindertenparkplatz,U-Bahnhof Josephsburg (gegenüber),1,keine
"Behindertenparkplatz ""Kaiser-Ludwig-Platz 6""",48.13188084796696,11.555427352907191,Behindertenparkplatz,Arztpraxis,1,Mo-Fr 8.00-18.00 Uhr
"Behindertenparkplatz ""Kaiserstraße 24""",48.16095925598603,11.582605237190835,Behindertenparkplatz,Arztpraxen,1,Mo-Fr werktags 8.00-19.00 Uhr
"Behindertenparkplatz ""Kapellenstraße ggü. 2""",48.13936920480588,11.56878588089319,Behindertenparkplatz,Fußgängerzone,1,bis 2 Stunden
"Behindertenparkplatz ""Kardinal-Faulhaber-Straße 14""",48.14024323576718,11.57406593321742,Behindertenparkplatz,Banken,2,derzeit aufgehoben
"Behindertenparkplatz ""Kardinal-Wendel-Straße 8""",48.16537023888858,11.655963224451847,Behindertenparkplatz,Wohnanlage für Behinderte,2,keine
"Behindertenparkplatz ""Karl-Theodor-Straße 95""",48.167311331686,11.571126528350863,Behindertenparkplatz,Orthopädie-Schuhtechnik Geschäft&nbsp;,1,Mo-Fr werktags 9.00-18.00 Uhr Sa werktags 9.00-12.00 Uhr
"Behindertenparkplatz ""Karlstraße 42""",48.14457582347231,11.561499315384674,Behindertenparkplatz,"Arztpraxen, Krankengymnastik",1,Mo-Fr werktags 8.00-20.00 Uhr
"Behindertenparkplatz ""Karlstraße 9""",48.14297241570567,11.566753563964049,Behindertenparkplatz,Finanzamt,1,Mo-Fr werktags 8.00-17.00 Uhr
"Behindertenparkplatz ""Keferloherstraße 71""",48.18175083847455,11.5677116077315,Behindertenparkplatz,"Kulturzentrum, Kirche, allgemeiner Bedarf",1,keine
"Behindertenparkplatz ""Kellerstraße 6""",48.13169276554802,11.59206490955423,Behindertenparkplatz,Philharmonie,2,keine
"Behindertenparkplatz ""Kiem-Pauli-Weg 45""",48.134106857015034,11.514296583250102,Behindertenparkplatz,Alten-und Service-Zentrum,3,keine
"Behindertenparkplatz ""Klingsorstraße ggü. 3""",48.15517260717971,11.63011773231274,Behindertenparkplatz,"Geschäfte, Arztpraxen, Apotheke",1,keine
"Behindertenparkplatz ""Knöpflerstraße 9""",48.094748328907414,11.496791642111951,Behindertenparkplatz,"Arztpraxen, Sparkasse",1,keine
"Behindertenparkplatz ""Kölblstraße 1""",48.11885354061774,11.611225235005739,Behindertenparkplatz,Fahrschule (Behindertenausbildung) (südlich Melusinenstraße 15),1,keine
"Behindertenparkplatz ""Kölner Platz 1""",48.17016459910346,11.576628488960097,Behindertenparkplatz,Klinikum Schwabing,2,werktags 9.00-20.00 Uhr
"Behindertenparkplatz ""Königinstraße 8""",48.15027806139687,11.584653880040149,Behindertenparkplatz,Englischer Garten (nördlich Veterinärstraße),2,9.00-23.00 Uhr
"Behindertenparkplatz ""Konradinstraße ggü. 23""",48.11452255940051,11.568154141913125,Behindertenparkplatz,allgemeiner Bedarf,1,keine
"Behindertenparkplatz ""Kreillerstraße 18""",48.12762999514496,11.632800398445596,Behindertenparkplatz,Postfiliale,1,Mo-Fr werktags 9.00-18.00 Uhr Sa 9.00-14.00 Uhr bis 1 Stunde
"Behindertenparkplatz ""Kreillerstraße 5""",48.12819229517523,11.631459754054585,Behindertenparkplatz,allgemeiner Bedarf,1,Mo-Fr werktags 9.00-18.00 Uhr Sa werktags 8.00-14.00 Uhr
"Behindertenparkplatz ""Kufsteiner Straße 2""",48.14975004681832,11.601934262989637,Behindertenparkplatz,Apotheke,1,keine
"Behindertenparkplatz ""Lachnerstraße 1""",48.1562892847809,11.53061316796265,Behindertenparkplatz,Arztpraxis,1,Mo-Fr werktags 9.00-17.00 Uhr
"Behindertenparkplatz ""Landsberger Straße 203""",48.14136881082889,11.51745306250103,Behindertenparkplatz,Sanitätshaus,1,Mo-Fr werktags 8.00-18.00 Uhr Sa 9.00-13.00 Uhr
"Behindertenparkplatz ""Landsberger Straße 511""",48.14653932440124,11.461547900908574,Behindertenparkplatz,Allgemeiner Bedarf,1,keine
"Behindertenparkplatz ""Landshuter Allee 181""",48.16436636488502,11.537536686913883,Behindertenparkplatz,behinderten-gerechte Wohnungen,2,keine
"Behindertenparkplatz ""Landwehrstraße 20""",48.136363139890975,11.562227504526387,Behindertenparkplatz,"Deutsches Theater, allgemeiner Bedarf",2,9.00-23.00 Uhr
"Behindertenparkplatz ""Landwehrstraße 60""",48.13642329456011,11.555630037320634,Behindertenparkplatz,"Kreisjugendring, Sozialreferat",2,Mo-Fr werktags 7.00-18.00 Uhr
"Behindertenparkplatz ""Lazarettstraße 1""",48.1507974192802,11.54481499472292,Behindertenparkplatz,Ärztehaus,1,Mo-Fr werktags 8.00-18.00 Uhr
"Behindertenparkplatz ""Lehrer-Götz-Weg 2""",48.123443736367115,11.668419211125475,Behindertenparkplatz,Post,1,Mo-Fr werktags 8.00-20.00 Uhr Sa 8.00-14.00 Uhr bis 2 Stunden
"Behindertenparkplatz ""Leonrodstraße 21""",48.15354900229698,11.535711815939218,Behindertenparkplatz,"Meldestelle, Geschäfte",2,Mo-Fr werktags 8.00-18.00 Uhr
"Behindertenparkplatz ""Leonrodstraße 69""",48.157981509694245,11.544408779807222,Behindertenparkplatz,Ärztehaus,1,Mo-Fr werktags 8.00-18.00 Uhr
"Behindertenparkplatz ""Leopoldstraße 59""",48.1614575978985,11.586123079986555,Behindertenparkplatz,Post,1,werktags 6.00-23.00 Uhr
"Behindertenparkplatz ""Leopoldstraße 80""",48.160851023470705,11.58625565214991,Behindertenparkplatz,allgemeiner Bedarf,2,9.00-23.00 Uhr
"Behindertenparkplatz ""Liebherrstraße 20""",48.133346482206136,11.584225973502635,Behindertenparkplatz,Praxis für Physiotherapie,1,Mo-Fr werktags 8.00-16.00 Uhr
"Behindertenparkplatz ""Lilienthalallee 32""",48.195217798915486,11.609075016949397,Behindertenparkplatz,Alten- und Service-Zentrum,2,Mo-Fr werktags 8.00-17.00 Uhr
"Behindertenparkplatz ""Lindwurmstraße 127""",48.127420298379334,11.554310523480908,Behindertenparkplatz,Münchner Volkshochschule mit Rollstuhlfahrer-Kursen,1,werktags 8.00-20.00 Uhr
"Behindertenparkplatz ""Lindwurmstraße 71""",48.12993595095966,11.5595012038902,Behindertenparkplatz,Alten- u. Service-Zentrum,1,bis 3 Stunden
"Behindertenparkplatz ""Lindwurmstraße 9""",48.132374496190415,11.56457884596842,Behindertenparkplatz,Medizinisches Kaufhaus,1,werktags 8.00-18.00 Uhr
"Behindertenparkplatz ""Linprunstraße 22""",48.14974262073213,11.55450055931081,Behindertenparkplatz,Oberlandesgericht,1,Mo-Fr werktags 8.00-16.00 bis 2 Stunden
"Behindertenparkplatz ""Linprunstraße 25""",48.149808611719656,11.554123689903292,Behindertenparkplatz,Oberlandesgericht,1,Mo-Fr werktags 6.30-18.30 bis 3 Stunden
"Behindertenparkplatz ""Lorettoplatz""",48.10273212389786,11.488093693325597,Behindertenparkplatz,Eingang Waldfriedhof,1,keine
"Behindertenparkplatz ""Lothringer Straße 1""",48.12829563247673,11.59656517111341,Behindertenparkplatz,Geschäfte,1,keine
"Behindertenparkplatz ""Luganoweg 8""",48.09113492665846,11.474106783785995,Behindertenparkplatz,Seniorenzentrum,1,8.00-20.00 Uhr bis 3 Stunden
"Behindertenparkplatz ""Luisenstraße 33""",48.146789540280174,11.564221931475284,Behindertenparkplatz,Lenbachgalerie,2,9.00-23.00 Uhr
"Behindertenparkplatz ""Maderbräustraße bei 4""",48.13714410754303,11.578706776341212,Behindertenparkplatz,Ärztehaus,1,Mo-Fr werktags 8.00-18.00 Uhr
"Behindertenparkplatz ""Maistraße 11""",48.130263514275626,11.56285694381831,Behindertenparkplatz,Frauenklinik,1,keine
"Behindertenparkplatz ""Maistraße 46""",48.126394327198874,11.561143423194371,Behindertenparkplatz,Krankengymnastik,1,Mo-Fr werktags 8.00-18.00 Uhr
"Behindertenparkplatz ""Manzostraße 105""",48.183659753932,11.487222124148403,Behindertenparkplatz,Seniorenwohnheim,4,keine
"Behindertenparkplatz ""Maria-Montessori-Straße 2""",48.13145714330389,11.69453801347,Behindertenparkplatz,Wohngebiet (Lehrer-Wirth-Straße 15),1,keine
"Behindertenparkplatz ""Mariahilfplatz 17""",48.12411692619948,11.583581712267785,Behindertenparkplatz,Landratsamt,1,keine
"Behindertenparkplatz ""Marsstraße 42""",48.144496072536505,11.554781061855786,Behindertenparkplatz,Deutsche Angestellten Akademie,2,Mo-Fr werktags 9.00-18.00 Uhr
"Behindertenparkplatz ""Martiusstraße 4""",48.15694599150635,11.585722476743886,Behindertenparkplatz,Versorgungsärztliche Untersuchungsstelle,1,Mo-Fr werktags 8.00-16.30 Uhr
"Behindertenparkplatz ""Mathildenstraße 3a""",48.13524344202433,11.563405893299748,Behindertenparkplatz,Augenklinik,2,8.00-20.00 Uhr
"Behindertenparkplatz ""Max-Joseph-Platz 2""",48.13990504305685,11.578697656767417,Behindertenparkplatz,"Nationaltheater, Residenz",2,keine
"Behindertenparkplatz ""Maxburgstraße 2""",48.13971490559604,11.571047059329176,Behindertenparkplatz,"Familiengericht, Nachlassgericht",4,keine
"Behindertenparkplatz ""Maximilianstraße 18""",48.13878190995041,11.581447851739386,Behindertenparkplatz,Geschäfte,2,keine
"Behindertenparkplatz ""Maximilianstraße 30""",48.13851709146826,11.582820503560805,Behindertenparkplatz,Schauspielhaus,3,keine
"Behindertenparkplatz ""Maximilianstraße 42""",48.13777597000074,11.585540592053812,Behindertenparkplatz,Völkerkundemuseum (Ortsfahrbahn),2,keine
"Behindertenparkplatz ""Maximilianstraße 47""",48.137950953022795,11.587937538565885,Behindertenparkplatz,Theater (Ortsfahrbahn),2,18.00-23.00 Uhr
"Behindertenparkplatz ""Maximilianstraße ggü. 8""",48.13923869089112,11.579697400932151,Behindertenparkplatz,"Nationaltheater (Nordseite, Bühneneingang)",5,keine
"Behindertenparkplatz ""Meindlstraße 16""",48.11773779888481,11.538068915802686,Behindertenparkplatz,Sozialbürgerhaus Sendling,1,Mo-Fr werktags 8.00 bis 22.00 Uhr
"Behindertenparkplatz ""Meindlstraße 20""",48.11752199146869,11.538077563169177,Behindertenparkplatz,Sozialamt,1,Mo-Sa werktags 8.00-18.00 Uhr
"Behindertenparkplatz ""Meindlstraße ggü. 22""",48.117068217264794,11.538175640305683,Behindertenparkplatz,Nähe Aufzug zum U-Bahnhof Harras,2,keine
"Behindertenparkplatz ""Menzinger Straße 54""",48.164786194841376,11.502352139455146,Behindertenparkplatz,Diagnose- und Therapiezentrum Franz-Schrank-Straße 2,4,werktags Mo-Fr 7.00-19.00 Uhr
"Behindertenparkplatz ""Milbertshofener Platz 1""",48.184835551060594,11.564135328045486,Behindertenparkplatz,Kirche,1,Sa 17.00-19.00 Uhr So u. Feiertag 9.00-12.00 Uhr
"Behindertenparkplatz ""Milbertshofener Straße 90""",48.184193473575924,11.578886753500646,Behindertenparkplatz,"Shuttle-Service für Behinderte,, Geschäfte, Ärztehaus",2,bis 3 Stunden
"Behindertenparkplatz ""Moosacher Straße ggü. 80""",48.18594587670072,11.547725242154497,Behindertenparkplatz,U-Bahnhof Oberwiesenfeld,9,keine
"Behindertenparkplatz ""Mühldorfstraße 1""",48.12898932238538,11.609959971159446,Behindertenparkplatz,Jobcenter München Fachstelle für berufliche Wiedereingliederung,2,Mo-Fr werktags 7.30-17.00 Uhr
"Behindertenparkplatz ""Müllerstraße 14""",48.132606566002565,11.573719240296985,Behindertenparkplatz,"Beratungsstelle, behindertengerechte Wohnungen",1,Mo-Fr werktags 9.00-18.00 Uhr bis 3 Stunden
"Behindertenparkplatz ""Mundesgasse 4""",48.16205180411732,11.414370700592833,Behindertenparkplatz,Hausarztzentrum,1,werktags Mo-Fr 7.00-20.00 Uhr
"Behindertenparkplatz ""Murnauer Straße 267""",48.10257351569015,11.524488996637082,Behindertenparkplatz,Seniorenzentrum,1,keine
"Behindertenparkplatz ""Museumsinsel 1 (Bosch-Brücke)""",48.131012084580775,11.582814032396456,Behindertenparkplatz,Deutsches Museum,3,9.00-16.00
"Behindertenparkplatz ""Museumsinsel 1 (Ludwigsbrücke)""",48.130501008987096,11.583241343265858,Behindertenparkplatz,Deutsches Museum,4,keine
"Behindertenparkplatz ""Muspillistraße 31""",48.17125567111625,11.624093272875202,Behindertenparkplatz,Pfarramt und Kirche St. Lorenz,1,keine
"Behindertenparkplatz ""Nestroystraße 20""",48.12169696370384,11.53190179676636,Behindertenparkplatz,Zugang zum Westpark,2,keine
"Behindertenparkplatz ""Neuherbergstr. 100""",48.20944994872508,11.567647058666376,Service Sonstige Angebote,Ärztehaus,1,Mo-Fr werktags 8.00-18.00 Uhr bis 3 Stunden
"Behindertenparkplatz ""Neustifter Straße 43""",48.18611735564202,11.566585594741673,Behindertenparkplatz,Alten-und Service-Zentrum,2,keine
"Behindertenparkplatz ""Nigerstraße""",48.139220577269306,11.605058905309656,Behindertenparkplatz,Prinzregententheater,2,9.00-22.00 Uhr
"Behindertenparkplatz ""Nordendstraße 43""",48.15824176910003,11.574824486590662,Behindertenparkplatz,Sanotätshaus,1,Mo-Fr werktags 9.00-19.00 Uhr Sa werktags 9.00-14.00 Uhr
"Behindertenparkplatz ""Nordendstraße 48""",48.15711425405872,11.575136215077501,Behindertenparkplatz,Schauburg,1,keine
"Behindertenparkplatz ""Nußbaumstraße 30""",48.132911330805236,11.559126486300919,Behindertenparkplatz,Beratungsstelle für Behinderte,1,Mo-Fr werktags 7.00-17.00 Uhr
"Behindertenparkplatz ""Nymphenburger Straße 148""",48.152003797872354,11.53612221158368,Behindertenparkplatz,allgemeiner Bedarf,1,keine
"Behindertenparkplatz ""Nymphenburger Straße 16""",48.14848101443192,11.55384623733077,Behindertenparkplatz,Strafjustizzentrum,2,keine
"Behindertenparkplatz ""Nymphenburger Straße 163""",48.15429722132035,11.532815382881946,Behindertenparkplatz,Rotkreuz-Klinikum,2,keine
"Behindertenparkplatz ""Nymphenburger Straße 171""",48.15540573209672,11.532281144970169,Behindertenparkplatz,Alten- und Service-Zentrum,1,Mo-Fr werktags 8.00-18.00 Uhr
"Behindertenparkplatz ""Nymphenburger Straße 2""",48.147702927441564,11.558469165749132,Behindertenparkplatz,Löwenbräukeller,1,keine
"Behindertenparkplatz ""Nymphenburger Straße 213""",48.15815159876875,11.527484510373952,Behindertenparkplatz,Praxis für Physiotherapie,1,werktags 7.30-20.00 Uhr
"Behindertenparkplatz ""Oberföhringer Straße 228""",48.17271042507221,11.627578415557712,Behindertenparkplatz,Orthopädiegeschäft,1,Mo-Fr werktags 8.30-18.00 Uhr bis 1 Stunde
"Behindertenparkplatz ""Orleansplatz 11""",48.12779161704089,11.604226205929582,Behindertenparkplatz,"Sozialreferat, Ostbahnhof (Arkadenfahrbahn Privatgrund)",1,keine
"Behindertenparkplatz ""Orleansplatz 13""",48.12745999102083,11.603248110868833,Behindertenparkplatz,"Bezirksinspektion, Sozialreferat",1,Mo-Fr werktags 8.00-18.00 Uhr
"Behindertenparkplatz ""Orleansplatz 5a""",48.128828848207284,11.603788368511008,Behindertenparkplatz,Ostbahnhof,1,keine
"Behindertenparkplatz ""Orleansplatz bei 13""",48.12742422671067,11.603308836198718,Behindertenparkplatz,"Bezirksinspektion, Sozialreferat, allgemeiner Bedarf",1,keine
"Behindertenparkplatz ""Ostpreußenstraße 47""",48.151681244144754,11.640867682717074,Behindertenparkplatz,Orthopädiefachgeschäft,1,Mo-Fr werktags 8.00-19.00 Uhr Sa werktags 8.00-14.00 Uhr
"Behindertenparkplatz ""Packenreiterstraße 48""",48.16362912644273,11.47569937460066,Behindertenparkplatz,Alten- und Servicezentrum,2,keine
"Behindertenparkplatz ""Parlerstraße ggü. 74""",48.20486460025552,11.570376324424316,Behindertenparkplatz,U-Bahnhof Harthof,1,keine
"Behindertenparkplatz ""Partnachplatz ggü. 7""",48.11713256699994,11.52634930543648,Behindertenparkplatz,"U-Bahnhof Partnachplatz, Geschäfte",1,keine
"Behindertenparkplatz ""Parzivalstraße 16""",48.17049724331631,11.580282700215308,Behindertenparkplatz,Klinikum Schwabing (Zufahrt zur Kinderklinik),4,keine
"Behindertenparkplatz ""Paul-Löbe-Straße 11""",48.100899103900474,11.640569733328958,Behindertenparkplatz,Alte- und Service-Zentrum und Caritas Zentrum Perlach,2,Mo-Do 9.00-17.00 Uhr Fr 9.00-15.00 Uhr
"Behindertenparkplatz ""Pelkovenstraße ggü. 61""",48.18182218463234,11.517753099332642,Behindertenparkplatz,U-Bahnhof Moosacher St.-Martins-Platz,1,keine
"Behindertenparkplatz ""Peschelanger 3""",48.10780023352265,11.656333498332796,Behindertenparkplatz,"Behörden, Ärzte, Apotheke",2,keine
"Behindertenparkplatz ""Pettenkoferstraße östlich 8a""",48.13423397071156,11.562823290865689,Behindertenparkplatz,Poliklinik,1,keine
"Behindertenparkplatz ""Pettenkoferstraße westlich 8a""",48.13423599049633,11.562171667254685,Behindertenparkplatz,Poliklinik (Privatstraße),1,keine
"Behindertenparkplatz ""Pfanzeltplatz ggü. 11""",48.09994563220086,11.63057382321338,Behindertenparkplatz,"Geschäfte, Arztpraxen, Stadtsparkasse",1,keine
"Behindertenparkplatz ""Pidinger Straße 10""",48.099991501949965,11.51139531315706,Behindertenparkplatz,Psychologische Praxis für Menschen und Tiere,1,8.00-22.00 Uhr
"Behindertenparkplatz ""Planegger Straße ggü. 13""",48.145100102716334,11.458613286839748,Behindertenparkplatz,Arztpraxen,1,Mo-Fr werktags 8.00-18.00 Uhr
"Behindertenparkplatz ""Plinganserstraße 45""",48.11759376296621,11.540279580090507,Behindertenparkplatz,Orthopädische Praxis,1,Mo-Fr werktags 8.00-18.00 Uhr
"Behindertenparkplatz ""Pognerstraße 38""",48.10180619788812,11.546045978020977,Behindertenparkplatz,"U-Bahnhof Thalkirchen, Wohngebiet",1,keine
"Behindertenparkplatz ""Prannerstraße 7""",48.14123696433568,11.572841675191361,Behindertenparkplatz,Kleine Komödie,2,keine
"Behindertenparkplatz ""Preysingstraße 21""",48.13231939736398,11.595062604811206,Behindertenparkplatz,Altenheim,2,keine
"Behindertenparkplatz ""Prielmayerstraße 7""",48.14017468992091,11.564163626691458,Behindertenparkplatz,Justizpalast,2,Mo-Fr werktags 9.00-18.00 Uhr Sa werktags 9.00-14.00 Uhr
"Behindertenparkplatz ""Rathenaustraße 74""",48.20121925078049,11.573178017458758,Behindertenparkplatz,lokaler Bedarf,1,7.00-20.00 Uhr bis 3 Stunden
"Behindertenparkplatz ""Reichenbachstraße 3a""",48.13407354404572,11.576441166782619,Behindertenparkplatz,allgemeiner Bedarf,2,keine
"Behindertenparkplatz ""Reichenbachstraße ggü. 23""",48.13095077895614,11.575882416427339,Behindertenparkplatz,Gärtnerplatztheater,3,18.00-21.00 Uhr
"Behindertenparkplatz ""Reitmorstraße 28""",48.14168872502849,11.593282520181845,Behindertenparkplatz,Physiotherapie,1,Mo-Fr 7.30-17.00 Uhr
"Behindertenparkplatz ""Reitmorstraße 30""",48.14260768456743,11.593745579581183,Behindertenparkplatz,Altenheim,2,keine
"Behindertenparkplatz ""Reitmorstraße ggü. 39""",48.14337290615352,11.593967989149931,Behindertenparkplatz,Altenheim,2,keine
"Behindertenparkplatz ""Renatastraße 64""",48.15605776667617,11.526784623650599,Behindertenparkplatz,Blindeninstitut,2,zeitliche Beschränkung: keine
"Behindertenparkplatz ""Rheinbergerstraße bei 7""",48.146120092101796,11.578868602032173,Behindertenparkplatz,Bayerisches Landessozialgericht,2,Mo-Fr werktags 8.00-18.00 Uhr
"Behindertenparkplatz ""Ricarda-Huch-Straße 4""",48.17912492812669,11.57499498388612,Behindertenparkplatz,Generationengarten,1,8.00-20.00 Uhr bis 5 Stunden
"Behindertenparkplatz ""Richard-Wagner-Straße 9""",48.147505192354124,11.563214702418621,Behindertenparkplatz,Psychosomatische Beratungsstelle ZWIST,1,Mi 13.00-18.00 Uhr bis 2 Stunden
"Behindertenparkplatz ""Richelstraße 11""",48.14558309991858,11.529615455919537,Behindertenparkplatz,Sozialgericht,2,Mo-Do werktags 7.30-16.30 Uhr Fr werktags 7.30-15.00 Uhr
"Behindertenparkplatz ""Ridlerstraße 55""",48.134328775083134,11.532042415303476,Behindertenparkplatz,Integrationsfachdienst München-Freising,1,Mo-Fr werktags 8.00-20.00 Uhr bis 2 Stunden
"Behindertenparkplatz ""Ridlerstraße ggü. 52""",48.13370248071707,11.532840766599822,Behindertenparkplatz,U-Bahnhof Heimeranplatz,2,keine
"Behindertenparkplatz ""Riesenfeldstraße 18""",48.17881939210902,11.564233318557074,Behindertenparkplatz,Siloah,1,keine
"Behindertenparkplatz ""Riesenfeldstraße 75""",48.18562952776988,11.56244080498455,Behindertenparkplatz,Bürgerbüro,1,Mo-Fr werktags 8.00-18.00 Uhr
"Behindertenparkplatz ""Rindermarkt 15""",48.136233153509956,11.57432746061104,Behindertenparkplatz,"Fußgängerzone, Tourismusamt",1,keine
"Behindertenparkplatz ""Romanstraße 93""",48.15561706142159,11.5095911982658,Behindertenparkplatz,Krankenhaus Barmherzige Brüder (Nordseite),1,keine
"Behindertenparkplatz ""Rosenheimer Straße 30""",48.129879623448794,11.591790415643281,Behindertenparkplatz,Orthopädiegeschäft,1,Mo-Fr werktags 9.00-18.00 Uhr
"Behindertenparkplatz ""Rosenkavalierplatz 4""",48.15220154804511,11.619461077313694,Behindertenparkplatz,Stiftung Pfennigparade,3,keine
"Behindertenparkplatz ""Rosental 7""",48.135344548372686,11.574798318726149,Behindertenparkplatz,allgemeiner Bedarf,1,keine
"Behindertenparkplatz ""Rottmannstraße 20""",48.14880517854667,11.559790184131876,Behindertenparkplatz,Sanitätshaus,2,Mo-Fr werktags 7.30-18.00 Uhr Sa 7.30-14.00 Uhr
"Behindertenparkplatz ""Rümannstraße 60""",48.17596308599401,11.578476720599816,Behindertenparkplatz,Altenheim,1,keine
"Behindertenparkplatz ""Rumfordstraße 20""",48.133493532746414,11.577681948897384,Behindertenparkplatz,BRK-Reisedienst,1,Mo-Fr werktags 9.00-17.00 Uhr bis 2 Stunden
"Behindertenparkplatz ""Rupprechtstraße 25""",48.148874058134766,11.539469815269982,Behindertenparkplatz,Fachstelle Kreisjugendring,1,werktags 9.00-20.00 Uhr
"Behindertenparkplatz ""Salvatorplatz 2""",48.14208709201882,11.57534067608934,Behindertenparkplatz,"Kirche, Staatsministerien",2,keine
"Behindertenparkplatz ""Salvatorstraße 5""",48.14126575873207,11.575763987946527,Behindertenparkplatz,Fußgängerzone,2,keine
"Behindertenparkplatz ""Salzmesserstraße 43""",48.13008642665279,11.67035805940646,Behindertenparkplatz,U-Bahnhof Am Moosfeld,1,keine
"Behindertenparkplatz ""Salzmesserstraße 43a""",48.13024868914963,11.670491364189834,Behindertenparkplatz,U-Bahnhof Am Moosfeld,1,keine
"Behindertenparkplatz ""Sandstraße bei 9""",48.14771800884488,11.555378134406444,Behindertenparkplatz,Ärzteversorgung Niedersachsen,1,Mo-Fr werktags 8.00-19.00 Uhr bis 2 Stunden
"Behindertenparkplatz ""Schackstraße 2""",48.15213180583068,11.582475126680446,Behindertenparkplatz,Universitätsbibliothek,1,keine
"Behindertenparkplatz ""Schellingstraße 155""",48.15528318353826,11.558169012663948,Behindertenparkplatz,Landesamt für Versorgung -Behinderten-beratung,1,Mo-Fr werktags 8.00-17.00 Uhr
"Behindertenparkplatz ""Schellingstraße 31""",48.15041919827745,11.575272037493873,Behindertenparkplatz,Sozialverband VdK Bayern,2,Mo-Fr werktags 7.00-18.00 Uhr
"Behindertenparkplatz ""Schinkelstraße 52""",48.17374825186426,11.592780691740748,Behindertenparkplatz,behindertengerechte Wohnungen,2,keine
"Behindertenparkplatz ""Schleißheimer Straße 131""",48.163336461958124,11.56399461337937,Behindertenparkplatz,Allgemeiner Bedarf,1,werktags Mo-Fr 8.00-18.00 Uhr
"Behindertenparkplatz ""Schleißheimer Straße 142""",48.160141275735114,11.563322669563805,Behindertenparkplatz,Nordbad,2,7.00-22.00 Uhr
"Behindertenparkplatz ""Schleißheimer Straße 413""",48.20400760392643,11.563697130197443,Behindertenparkplatz,Geschäfte,2,werktags 7.00-19.00 Uhr
"Behindertenparkplatz ""Schleißheimer Straße 93""",48.15962701309737,11.562890168814267,Behindertenparkplatz,Allgemeiner Bedarf,2,werktags 9.00-20.00 Uhr
"Behindertenparkplatz ""Schlierseestraße 75""",48.11118438468783,11.594919552067338,Behindertenparkplatz,Giesinger Gesundheits-Zentrum,3,keine
"Behindertenparkplatz ""Schlüterstraße 1""",48.17442088947346,11.589723205460986,Behindertenparkplatz,Behindertengerechte Wohnungen,2,keine
"Behindertenparkplatz ""Schneeglöckchenstraße 89a""",48.19919814513887,11.51156367624931,Behindertenparkplatz,Behindertengerechte Wohnungen,Anzahl:1,keine
"Behindertenparkplatz ""Schrammerstraße ggü. 3""",48.13905617500619,11.576521170442872,Behindertenparkplatz,allgemeiner Bedarf,6,keine
"Behindertenparkplatz ""Schumacherring 24""",48.099448768404706,11.641244417817202,Behindertenparkplatz,Kirche,1,keine
"Behindertenparkplatz ""Schwanthalerstraße 62""",48.137545562353026,11.555136668513727,Behindertenparkplatz,Sozialbürgerhaus Mitte,1,werktags Mo-Fr 8.00-19.00 Uhr bis 2 Stunden
"Behindertenparkplatz ""Schweizer Platz""",48.088152290850275,11.481748108378028,Behindertenparkplatz,U-Bahnhof Fürstenried West,2,keine
"Behindertenparkplatz ""Seeaustraße 2""",48.14445698991957,11.591533920882421,Behindertenparkplatz,Prähistorische Sammlung,2,8.00-20.00 Uhr
"Behindertenparkplatz ""Seerieder Straße 12""",48.13467806260618,11.602198381699388,Behindertenparkplatz,Verbund behinderter Arbeitgeberinnen,1,keine
"Behindertenparkplatz ""Seitzstraße 10""",48.141096507321784,11.584842055150279,Behindertenparkplatz,Orthopädiefirma,2,keine
"Behindertenparkplatz ""Sendlinger Straße 19""",48.13545581777808,11.570854081627422,Behindertenparkplatz,Fußgängerzone,2,keine
"Behindertenparkplatz ""Siegenburger Straße ggü. 15""",48.12785344902975,11.530919014981528,Behindertenparkplatz,Kleingartenanlage,1,keine
"Behindertenparkplatz ""Siegenburger Straße ggü. 58""",48.12801322670866,11.521668549357168,Behindertenparkplatz,Kleingartenanlage,2,keine
"Behindertenparkplatz ""Siegfriedstraße 22""",48.164340344233025,11.58373394860399,Behindertenparkplatz,Gymnasium,2,Mo-Do werktags 17.00-22.00 Uhr
"Behindertenparkplatz ""Sollner Straße 85""",48.073852796577015,11.5266521866857,Behindertenparkplatz,allgemeiner Bedarf,1,Mo-Fr werktags 17.00-22.00 Uhr bis 2 Stunden
"Behindertenparkplatz ""Sonnenstraße 26""",48.13486883632678,11.565417649423315,Behindertenparkplatz,Isar-Medizin-Zentrum,1,keine
"Behindertenparkplatz ""Sonnenstraße 5""",48.13836318926005,11.565529281952145,Behindertenparkplatz,Medizinisches Kaufhaus,1,keine
"Behindertenparkplatz ""Sonnenstraße bei 26""",48.134725301685904,11.565512906110252,Behindertenparkplatz,Isar-Medizin-Zentrum,1,bis 3 Stunden
"Behindertenparkplatz ""Sophienstraße 1""",48.141194533613636,11.5663049263157,Behindertenparkplatz,Barmer,1,Mo-Fr werktags 8.00-17.00 Uhr bis 2 Stunden
"Behindertenparkplatz ""Soxhletstraße ggü. 6""",48.1711571211558,11.593755758187314,Behindertenparkplatz,Ungererbad (Privatgrund),5,keine
"Behindertenparkplatz ""Sparkassenstraße 17""",48.13796685476896,11.578666464644181,Behindertenparkplatz,Postbank,1,keine
"Behindertenparkplatz ""St.-Anna-Straße 27""",48.14058559298672,11.586566083774027,Behindertenparkplatz,allgemeiner Bedarf (gegenüber),1,keine
"Behindertenparkplatz ""St.-Bonifatius-Straße ggü. 20""",48.11835129632248,11.585837643988052,Behindertenparkplatz,Ostfriedhof (gegenüber Zugspitzstraße),1,keine
"Behindertenparkplatz ""St.-Cajetan-Straße 3""",48.12156935108427,11.599364578861945,Behindertenparkplatz,Selbsthilfeorganisation Rollstuhlfahrer und Ihre Freunde e.V.,1,Mo-Fr werktags 8.00-16.00 Uhr bis 2 Stunden
"Behindertenparkplatz ""St.-Cajetan-Straße bei 7""",48.12196086402563,11.600745032870092,Behindertenparkplatz,Allgemeiner Bedarf,1,9.00-18.00 bis 2 Stunden
"Behindertenparkplatz ""St.-Jakobs-Platz 12""",48.133858715787156,11.573064007224547,Behindertenparkplatz,"Stadtmuseum, DMSG",3,keine
"Behindertenparkplatz ""St.-Magnus-Straße 34""",48.093528439726455,11.569638604174685,Behindertenparkplatz,"Geschäfte, Orthopädiegeschäft",1,Mo-Sa werktags 7.00-20.00 Uhr bis 3 Stunden
"Behindertenparkplatz ""St.-Martin-Straße 2""",48.11597722446917,11.58092101608654,Behindertenparkplatz,Bibliothek,1,Mo-Fr werktags 8.00-18.00 Uhr
"Behindertenparkplatz ""St.-Martin-Straße ggü. 64""",48.11844743322467,11.595164745603537,Behindertenparkplatz,"Ostfriedhof, S-Bahnhof St.-Martin-Straße",2,keine
"Behindertenparkplatz ""St.-Pauls-Platz 11""",48.13655152553872,11.551591477072407,Behindertenparkplatz,Kirche,1,keine
"Behindertenparkplatz ""Stemplingeranger 6""",48.098904467108184,11.660454036046136,Behindertenparkplatz,Sanitätshaus,1,Mo-Fr werktags 8.00-19.00 Uhr Sa 8.30-14.00 Uhr bis 3 Stunden
"Behindertenparkplatz ""Stephensonplatz 1""",48.093601054367426,11.630666181051788,Behindertenparkplatz,S-Bahnhof Perlach (P+R-Anlage),2,keine
"Behindertenparkplatz ""Sternwartstraße 2""",48.14591524513895,11.603489108966377,Behindertenparkplatz,Allgemeiner Bedarf,1,werktags 7.00-18.00 Uhr
"Behindertenparkplatz ""Stiftsbogen 89""",48.12023031109704,11.48539495140267,Behindertenparkplatz,VdK Außenstelle,1,keine
"Behindertenparkplatz ""Stockacher Straße 5""",48.14970062853055,11.44268648562867,Behindertenparkplatz,allgemeiner Bedarf,2,keine
"Behindertenparkplatz ""Stösserstraße 14""",48.22175057892831,11.556440723663695,Behindertenparkplatz,Arbeiterwohlfahrt,2,bis 2 Stunden
"Behindertenparkplatz ""Streitfeldstraße 23""",48.13148597148391,11.61966092580469,Behindertenparkplatz,Sozialreferat,2,Mo-Fr werktags 8.00-18.00 Uhr
"Behindertenparkplatz ""Stuntzstraße ggü. 6""",48.14243341620184,11.616348519148314,Behindertenparkplatz,"Arztpraxen, Geschäfte",1,werktags 8.00-20.00 Uhr
"Behindertenparkplatz ""Tal 1""",48.136501065549304,11.577475938214173,Behindertenparkplatz,"Stadtsparkasse, Fußgängerzone, Geschäfte",5,keine
"Behindertenparkplatz ""Tegernseer Landstraße 10""",48.11937364833718,11.583787880603529,Behindertenparkplatz,"Arztpraxen, Geschäfte",1,8.00-18.00 Uhr
"Behindertenparkplatz ""Tegernseer Landstraße 210""",48.10167437141395,11.583729163574882,Behindertenparkplatz,Polizeipräsidium,1,Mo-Fr werktags 7.00-18.00 Uhr
"Behindertenparkplatz ""Tegernseer Landstraße 224""",48.100261025902384,11.584593128575953,Behindertenparkplatz,Staatliches Hochbauamt München II,1,keine
"Behindertenparkplatz ""Tegernseer Landstraße bei 10""",48.11933305773396,11.583754629746737,Behindertenparkplatz,"Arztpraxen, Geschäfte",1,keine
"Behindertenparkplatz ""Tegernseer Platz 7""",48.11534865100054,11.579952426448074,Behindertenparkplatz,Postamt,1,Mo-Fr werktags 8.00-20.00 Uhr Sa werktags 8.00-14.00 Uhr
"Behindertenparkplatz ""Tengstraße 22""",48.1576894587289,11.568988795900434,Behindertenparkplatz,Allgemeiner Bedarf,1,Mo-Fr werktags 9.00-19.00 Uhr Sa 9.00-14.00 Uhr
"Behindertenparkplatz ""Terofalstraße 66""",48.12570089492976,11.47501712955876,Behindertenparkplatz,"Kirche, Geschäfte",2,keine
"Behindertenparkplatz ""Therese-Giehse-Alle 71""",48.08772152531154,11.641312419491246,Behindertenparkplatz,Soziale Einrichtungen,1,keine
"Behindertenparkplatz ""Theresienstraße 35 a""",48.14825710769967,11.574275218863704,Behindertenparkplatz,Museum Brandhorst,2,9.00-20.00 bis 3 Stunden
"Behindertenparkplatz ""Theresienstraße bei 72""",48.14907485043887,11.57167472756563,Behindertenparkplatz,Pinakotheken,3,9.00-20.00 Uhr
"Behindertenparkplatz ""Thierschstraße 2""",48.13405944499272,11.583669385723514,Behindertenparkplatz,Postamt,3,keine
"Behindertenparkplatz ""Thomas-Dehler-Straße 10""",48.10115883230634,11.64602581833255,Behindertenparkplatz,Einkaufszentrum (PEP),6,keine
"Behindertenparkplatz ""Thomas-Dehler-Straße 16""",48.09969111528971,11.645445125012404,Behindertenparkplatz,Sozialamt,2,keine
"Behindertenparkplatz ""Thomas-Dehler-Straße 9""",48.10178545106345,11.646538452394694,Behindertenparkplatz,Deutsche Rentenversicherung,1,Mo-Fr werktags 8.00-18.00 Uhr
"Behindertenparkplatz ""Thomas-Dehler-Straße ggü. 12""",48.10082212213311,11.646202669824989,Behindertenparkplatz,Kulturhaus (gegenüber auf der Ostseite),2,keine
"Behindertenparkplatz ""Torquato-Tasso-Straße 40""",48.180816492584185,11.581355066002576,Behindertenparkplatz,Kirche,2,Sa 17.00-20.00 Uhr So u. Feiertag 9.00-12.00 Uhr
"Behindertenparkplatz ""Trappentreustraße 20""",48.13720279245696,11.534414652752885,Behindertenparkplatz,Orthopädiegeschäft,1,Mo-Fr werktags 7.00-17.00 Uhr
"Behindertenparkplatz ""Trogerstraße 15""",48.13938772757081,11.601369299964711,Behindertenparkplatz,Klinikum rechts der Isar,2,Mo-Fr werktags 8.00-15.00 Uhr
"Behindertenparkplatz ""Truderinger Straße 261""",48.12581018311026,11.662634547817948,Behindertenparkplatz,U-/S-Bahnhof Trudering (Parkplatz),2,keine
"Behindertenparkplatz ""Truderinger Straße 301""",48.12201832695208,11.669999909120707,Behindertenparkplatz,Geschäftszentrum Trudering,1,Mo-Fr werktags 8.00-20.00 Uhr Sa 8.00-14.00 Uhr
"Behindertenparkplatz ""Tulbeckstraße 31""",48.13689646204545,11.538743773555776,Behindertenparkplatz,Alten-und Service-Zentrum,2,keine
"Behindertenparkplatz ""Tumblingerstraße 21""",48.12558416316197,11.557422677241181,Behindertenparkplatz,Arbeitsamt,2,Mo-Fr werktags 7.00-18.00 Uhr
"Behindertenparkplatz ""Ungererstraße 130""",48.174682618797576,11.598918008910385,Behindertenparkplatz,Nordfriedhof,2,keine
"Behindertenparkplatz ""Ungererstraße 175""",48.178165167798305,11.602124807879997,Behindertenparkplatz,Reha-Zentrum,1,werktags 8.00-20.00
"Behindertenparkplatz ""Ungererstraße 215""",48.18314381708817,11.607613449047264,Behindertenparkplatz,U-Bahnhof Studentenstadt,6,keine
"Behindertenparkplatz ""Ungererstraße 44""",48.16580035334917,11.58960364975732,Behindertenparkplatz,allgemeiner Bedarf,1,Mo-Fr werktags 8.00-19.00 Uhr
"Behindertenparkplatz ""Unsöldstraße 2""",48.14253279834204,11.585354547423302,Behindertenparkplatz,Versicherung,1,Mo-Fr werktags 8.00-16.00 Uhr
"Behindertenparkplatz ""Untere Weidenstraße bei 29""",48.118001697777224,11.573833181560074,Behindertenparkplatz,Kreisverwaltungsreferat Verkehsüberwachung (Parkausweise für Schwerbehinderte),2,Mo-Fr werktags 7.00-18.00 Uhr bis 2 Stunden
"Behindertenparkplatz ""Valleystraße 37""",48.1169840751237,11.544139620097837,Behindertenparkplatz,Südbad,1,8.00-21.00 Uhr
"Behindertenparkplatz ""Volkartstraße 5""",48.1545699401684,11.531321014999927,Behindertenparkplatz,"Sanitätshaus, othopädische Werkstatt, Ärzte",1,Mo-Fr werktags 8.00-18.00 Uhr Sa werktags 8.00-14.00 Uhr bis 2 Stunden
"Behindertenparkplatz ""Wackersberger Straße 62""",48.115980325801814,11.542758437801563,Behindertenparkplatz,Blindenheim,3,keine
"Behindertenparkplatz ""Waldfriedhofstraße 90""",48.112289265990334,11.50385910348204,Behindertenparkplatz,"Arztpraxen, Geschäfte (Nordseite, östlich der Schongauer Straße)",1,Mo-Fr werktags 9.00-18.00 Uhr Sa werktags 9.00-14.00 Uhr
"Behindertenparkplatz ""Waltherstraße 32a""",48.12904506776984,11.559361039675581,Behindertenparkplatz,"Arztpraxen, Apotheke",1,Mo-Fr werktags 9.00-18.00 Uhr Sa werktags 9.00-14.00 Uhr
"Behindertenparkplatz ""Weißenburger Straße 12""",48.12849416431425,11.596758406982808,Behindertenparkplatz,Arztpraxen,1,werktags 8.00-19.00 Uhr
"Behindertenparkplatz ""Weißenburger Straße ggü. 50""",48.12827521646025,11.602328355325922,Behindertenparkplatz,Behindertenberatung,1,9.00-23.00 Uhr
"Behindertenparkplatz ""Werinherstraße 2""",48.11549010202874,11.580515347557508,Behindertenparkplatz,Postamt,1,keine
"Behindertenparkplatz ""Werinherstraße 33""",48.115432935136894,11.587089933457214,Behindertenparkplatz,Volkshochschule,1,keine
"Behindertenparkplatz ""Westendstraße 230""",48.13094832227811,11.518134965620948,Behindertenparkplatz,Kleingartenanlage,2,keine
"Behindertenparkplatz ""Westendstraße 66a""",48.13828113117567,11.54091477682262,Behindertenparkplatz,Selbsthilfezentrum,1,keine
"Behindertenparkplatz ""Westendstraße 91""",48.13808865558714,11.540009547353385,Behindertenparkplatz,allgemeiner Bedarf,1,keine
"Behindertenparkplatz ""Westendstraße 93""",48.13805599808445,11.539714242585987,Behindertenparkplatz,allgemeiner Bedarf,1,keine
"Behindertenparkplatz ""Westenriederstraße 51""",48.13505299076488,11.581128793782517,Behindertenparkplatz,"Arztpraxen, Geschäfte",2,keine
"Behindertenparkplatz ""Wettersteinplatz""",48.1086493392435,11.575266675608967,Behindertenparkplatz,U-Bahnhof Wettersteinplatz,4,keine
"Behindertenparkplatz ""Winthirstraße 24""",48.15627790481742,11.527830995792769,Behindertenparkplatz,Blindeninstitut,1,keine
"Behindertenparkplatz ""Winzererstraße 106""",48.16431234614394,11.562836974786382,Behindertenparkplatz,Landesarbeitsgericht,1,Mo-Fr werktags 9.00-18.00 Uhr
"Behindertenparkplatz ""Wolfgangstraße 18""",48.13308297518556,11.601256806629875,Behindertenparkplatz,Alten-und Service-Zentrum,1,keine
"Behindertenparkplatz ""Wörthstraße 10""",48.13120020401949,11.599054686174894,Behindertenparkplatz,Arztpraxis,1,Mo-Fr werktags 6.00-20.00 Uhr
"Behindertenparkplatz ""Wörthstraße 43""",48.129389323305105,11.60201750445273,Behindertenparkplatz,Ärztehaus,1,Mo-Fr werktags 8.00-18.00 Uhr Sa werktags 8.00-12.00 Uhr
"Behindertenparkplatz ""Wörthstraße 9""",48.131550094320374,11.598810146068455,Behindertenparkplatz,Osteopathiepraxis,1,Mo-Fr werktags 8.00-18.00
"Behindertenparkplatz ""Wotanstraße 117""",48.15453311305722,11.510589390911893,Behindertenparkplatz,Postamt,1,Mo-Fr werktags 9.00-18.00 Uhr Sa werktags 9.00-14.00 Uhr bis 1 Stunde
"Behindertenparkplatz ""Zellstraße (Volksbad)""",48.131887368261864,11.588624121313584,Behindertenparkplatz,Müllersches Volksbad,2,werktags 7.00 bis 23.00 Uhr
"Behindertenparkplatz ""Zellstraße 4""",48.132446430353845,11.589036138797212,Behindertenparkplatz,Muffathalle,3,werktags 18.00-23.00 Uhr
"Behindertenparkplatz ""Zum Schwabenbächl (Bahnhof Karlsfeld)""",48.2111350852436,11.460824721675857,Behindertenparkplatz,S-Bahnhof Karlsfeld (nördlicher Parkplatz),2,keine
"Behindertenparkplatz ""Zumpestraße ggü. 10""",48.13842345619924,11.606018984666873,Behindertenparkplatz,Akademietheater,1,9.00-23.00 Uhr
"Behindertenparkplatz ""Züricher Straße 37""",48.09474952794627,11.499127564425144,Behindertenparkplatz,"Geschäfte, U-Bahnhof",1,keine
"Behindertenparkplatz ""Zwillingstraße 5""",48.18271149751249,11.568476793190882,Behindertenparkplatz,Berufsgenossenschaft für Gesundheitsdienst u. Wohlfahrtspflege,1,Mo-Fr 8.00-15.00 Uhr
Behindertenparkplatz Angererstraße 7d,48.16593177482639,11.572583184962793,Behindertenparkplatz,Postamt,1,"Mo-Fr werktags 9.00-18 Uhr, Sa werktags 9.00-12.00 Uhr"
